기관명,위도,경도,주소,tel
SK청솔노인복지관,37.29902534,126.9975064,장안구 장안로 174(정자동),257-6811
밤밭노인복지관,37.30646458,126.9721175,장안구 상률로 53(율전동),271-8859
버드내노인복지관,37.26109748,127.0120847,권선구 권선로564번길 36(세류동),898-6544
서호노인복지관,37.27850693,126.97621,권선구 구운로4번길 34(구운동),291-0911
팔달노인복지관,37.28395753,127.0173376,팔달구 수원천로 343(북수동),248-3800
광교노인복지관,37.28967919,127.0567412,영통구 센트럴타운로 22(이의동),8006-7400
